Reporting,Owner,Installation Date,Station Name,,Adresses,Site Type,Latitude,Longitude,Council District,Agreement determined Neighborhood,Base Non-Bolted,Base Bolted,Power Type,Board Type,Aircard Type,AC Plugin,Dock,Bikes Ordered via TIP,Bikes Ordered via HBS,Method of Insurance,Station Count ,Dock Count,Bike Count,Notes,Bike to Dock Ratio,METRO?,Sponsor,Sponsor Amt Pd,"BTT
Installed"
TIP,COH,8/26/2021,EaDo Stadium METRORail,1 Supended,"2220 Texas Ave. Houston, TX 77003",ROW,29.752501,-95.349953,I,EaDo ,N/A,7,DC,1.5,Inseego DS,N/A,13,,,,,,,,,Y,,,
TIP,COH,10/25/2017,Rice U. Gibbs Rec & Wellness,1 Suspended,"20 Alumni Dr., Houston, TX 77005",Private Property,29.7182761,-95.4036246,C,Rice University,5,N/A,DC ,1.5 DL,Feeney 4G,N/A,9,13,,,,,,,,,,,
TIP,COH,10/25/2017,Rice U. Greenbriar Lot,1 Suspended,"5650 Greenbriar Dr., Houston, TX 77005",Private Property,29.715734,-95.4126,C,Rice University,5,N/A,DC ,1.5 DL,Feeney 4G,N/A,18,18,,,,,,,,,,,
TIP,COH,7/23/2019,8th Wonder,1 Suspended,"2202 Dallas St., Houston, TX 77003",ROW,29.7492,-95.3556,I,EaDo,8,N/A,DC ,1.5 DL,Feeney 4G,N/A,15,10,,,,,,,,,,,
TIP,COH,6/26/2018,Bobcat Teddys,1 Suspended,"2803 White Oak Dr., Houston, TX 77007",ROW,29.78152,-95.38874,C,Heights,5,N/A,DC ,1.5DL,Verizon 3G,N/A,9,6,,,,,,,,,,,
"TIP, PC1",COH,6/13/2017,Emancipation Park,1 Suspended,"3100 Dowling St., Houston, TX 77004",Park,29.73529,-95.36453,D,Third Ward,7,N/A,DC ,1.5 DL,Verizon 3G,N/A,13,9,,,,,,,,,,,
TIP,COH,5/29/2019,Heights Mercantile,1 Suspended,"703 Yale St., Houston, TX 77007",Park,29.78335,-95.39888,C,Heights,N/A,8,DC ,1.5,Feeney 4G,N/A,15,9,,,,,,,,,,,
TIP,COH,2/7/2018,Montie Beach Park,1 Suspended,"915 Northwood St., Houston, TX 77009",Park,29.80017,-95.37847,H,Heights,7,N/A,DC ,1.5 DL,Feeney 4G,N/A,13,13,,,,,,,,,,,
TIP,COH,2/8/2018,Rice U. Cambridge Office Bldg,1 Suspended,"6100 Main St., Houston, TX 77005",Private Property,29.71139,-95.3996,C,Rice University,9,N/A,DC ,1.5 DL,Feeney 4G,N/A,13,14,,,,,,,,,,,
TIP,COH,4/18/2018,Rice U. Duncan Hall,1 Suspended,"Laboratory Rd., Houston, TX 77005",Private Property,29.72034,-95.3982,C,Rice University,7,N/A,DC ,1.5 DL,Feeney 4G,N/A,13,10,,,,,,,,,,,
TIP,COH,2/16/2018,Rice U. South Servery,1 Suspended,"Alumni Dr. Houston, TX 77005",Private Property,29.71537,-95.40145,C,Rice University,7,N/A,DC ,1.5 DL,Feeney 4G,N/A,13,10,,,,,,,,,,,
TIP,COH,2/9/2018,Rice Village Apartments,1 Suspended,"2410 Shakespeare St. Houston, TX 77030",Private Property,29.71434,-95.41499,C,Rice University,8,N/A,DC ,1.5 DL,Feeney 4G,N/A,15,12,,,,,,,,,,,
"TIP, PC1",COH,11/27/2018,UH Blaffer Art Museum/GDH School of Architecture,1 Suspended,"4188 Elgin St, Houston TX 77004",Private Property,29.72454,-95.34209,D,UH Main,,,DC ,1.5 DL,Feeney 4G,N/A,18,,,,,,,,,,,,
"TIP, PC1",COH,8/14/2018,UH Student Center North,1 Suspended,"4465 University Dr, Houston TX 77004",Private Property,29.72092,-95.34133,D,UH Main,,,DC ,1.5 DL,Feeney 4G,N/A,18,,,,,,,,,,,,
TIP,COH,8/23/2021,19th Street & Rutland,1 Suspended,"249 W. 19th Street, Houston, TX 77008",ROW,29.802968,-95.401236,C,Heights,N/A,10,DC,1.5,Inseego DS,N/A,19,,,,,,,,,,,,
PC1,PC1,5/27/2021,5th Ward / Denver Harbor Transit Center,1 Suspended,"5602 Lyons Ave., Houston TX 77020",ROW,29.77597,-95.31533,,5th Ward,N/A,8,DC,1,Inseego DS,N/A,15,0,,,,,,,,Y,,,
PC1,PC1,1/1/2020,Alexander Deussen Park Boat Ramp/Parking Lot/Pavilion 4,1 Suspended,"12303 Sonnier St., Houston TX 77044",Park,29.91611,-95.14743,,Lake Houston,,,DC,,,N/A,18,,,,,,,,,,,,
PC1,PC1,1/1/2020,Alexander Deussen Park Picnic Area/ Pavillion 12,1 Suspended,"12303 Sonnier St., Houston TX 77044",Park,29.91047,-95.15279,,Lake Houston,,,DC,,,N/A,18,,,,,,,,,,,,
PC1,PC1,1/1/2020,Alexander Deussen Park Senior Center/ Pavilion 1,1 Suspended,"12303 Sonnier St., Houston TX 77044",Park,29.91047,-95.15279,,Lake Houston,,,DC,,,N/A,18,,,,,,,,,,,,
TIP,COH,7/24/2019,Burnett Transit Center,1 Suspended,"590 Burnett St., Houston, TX 77009",Private Property,29.772011,-95.359174,H,Near Northside,N/A,5,DC,,Feeney 4G,N/A,18,10,,,,,,,,Y,,,
TIP,COH,12/1/2020,Dallas & St. Emanuel,1 Suspended,"2105 Dallas St Houston, Tx 77003",ROW,29.7501193,-95.3564807,I,EaDo,,,DC,1.5,,,13,3,,,,,,,,,,,
TIP,COH,8/25/2021,DeLuxe Theatre,1 Suspended,"3303 Lyons Ave Houston, TX 77020",Private Property,29.776083,-95.3368,B,Inner Loop NE,N/A,4,DC,1.5,Inseego DS,N/A,14,,,,,,,,,,,,
PC1,PC1,2/25/2021,Dwight D. Eisenhower Park Trailheads,1 Suspended,"13400 Aqeduct Rd., Houston TX 77044",Park,29.90433,-95.14888,,Lake Houston,6,N/A,DC,1.5,Inseego DS,N/A,22,,,,,,,,,,,,
PC1,PC1,8/20/2021,Earl Henderon Park,1 Suspended,"4250 Elysian St., Houston, TX 77009",Park,29.79914,-95.35086,,Near Northside,7,N/A,DC,1.5,Inseego DS,N/A,13,,,,,,,,,,,,
PC1,PC1,12/7/2021,Finnigan Park,1 Suspended,"4900 Providence St., Houston, TX 77020",Park,29.7702,-95.320165,,5th Ward,N/A,7,DC,1.5,Inseego DS,N/A,13,0,,,,,,,,,PC1,,
TIP,COH,10/22/2019,Heights MKT Trail @ N Shepherd,1 Suspended,700 N Shepherd Dr. Houston TX 77007,Park,29.78328,-95.40952,C,Heights,,,DC,,,N/A,18,,,,,,,,,,,,
,HBS,7/16/2021,Heights Waterworks,1 Suspended,"449 W. 19th Street Houston, TX 77008",Park,29.80373,-95.40582,C,Heights,N/A,4,DC,1,Inseego DS,N/A,14,0,,,,,,,,,,,
,COH,9/11/2013,Leonel Castillo Comm Center,1 Suspended,"2109 South St., Houston, TX 77009",ROW,29.77857399,-95.36695099,H,Near Northside,6,N/A,DC,1.5 DL,Feeney 4G,N/A,11,7,,,,,,,,,,,
TIP,COH,12/1/2020,Levy Park,1 Suspended,"3801 Eastside St Houston, TX 77098",Park,29.7331667,-95.4243611,C,Inner Loop West,,,DC,1.5,,,18,6,,,,,,,,,,,
TIP,COH,8/24/2021,Louisiana & Walker,1 Suspended,"611 Walker St., Houston, TX 77002",Private Property," 29°45'34.21""N"," 95°22'1.33""W",I,Downtown,7,N/A,DC,1.5,Inseego DS,N/A,13,,,,,,,,,,,,
,HBS,8/1/2021,Meyerland JCC,1 Suspended,"5601 S. Braeswood Blvd., Houston, TX ",Park,29.67524,-95.48311,C,Meyerland,N/A,8,DC,1,Inseego DS,N/A,15,,,,,,,,,,,,
PC1,PC1,5/17/2022,Mickey Leland Memorial Park ,1 Suspended,"3701 Cavalcade St, Houston, TX 77026",HC Park,29.800964,-95.333735,,5th Ward,N/A,6,DC,,Inseego SC,N/A,11,0,,,,,,,,,,,
TIP,COH,6/13/2017,Moody Park ,1 Suspended,"3812 Baden St., Houston, TX 77009",Park,29.79461,-95.36553,H,Near Northside,N/A,9,DC,1.5 DL,Feeney 4G,N/A,17,11,,,,,,,,,,,
TIP,COH,12/1/2020,N. Braeswood & Kirby METRO Bus,1 Suspended,"7550 Kirby Dr Houston, TX 77030",Park,29.697916,-95.4185507,C,Inner Loop SW,,,DC,1.5,,,19,6,,,,,,,,Y,,,
TIP,COH,10/26/2017,Rice U. West Lot,1 Suspended,"College Way, Houston, TX 77005",Private Property,29.714785,-95.406,C,Rice University,14,N/A,DC,1.5 DL,Feeney 4G,N/A,27,22,,,,,,,,,,,
,COH,3/26/2013,Rusk & St. Emanuel,1 Suspended,"736 St. Emmanuel, Houston, TX 77003",ROW,29.75273705,-95.35410309,I,EaDo,5,,DC,1.5,Feeney 4G,N/A,9,7,,,,,,,,,,,
TIP,COH,12/1/2020,S. Braeswood & Linkmeadow METRO Bus,1 Suspended,"8600 Linkmeadow Blvd. Houston, TX 77025",ROW,29.6911667,-95.43525,C,Inner Loop SW,,,DC,1.5,,,19,6,,,,,,,,Y,,,
,COH,9/19/2013,Stude Park,1 Suspended,"2300 Forester, Houston, TX 77007",Park,29.77926064,-95.38558197,H,Heights,N/A,6,DC,1.5 DL,Feeney 4G,N/A,11,7,,,,,,,,,,,
"TIP, PC1",COH,11/7/2018,TSU Rec & Wellness Center,1 Suspended,"Tiger Walk, Houston, TX 77003",Private Property,29.72258,-95.36395,D,TSU,,,DC,1.5 DL,Feeney 4G,N/A,13,,,,,,,,,,,,
"TIP, PC1",COH,11/6/2018,TSU Student Center East,1 Suspended,"Tiger Walk, Houston, TX 77003",Private Property,29.7212,-95.36031,D,TSU,,,DC,1.5 DL,Feeney 4G,N/A,7,,,,,,,,,,,,
"TIP, PC1",COH,11/6/2018,TSU Student Center West,1 Suspended,"3100 Cleburne St, Houston, TX 77003",Private Property,29.72167,-95.36164,D,TSU,,,DC,1.5 DL,Feeney 4G,N/A,11,,,,,,,,,,,,
"TIP, PC1",COH,11/8/2018,TSU University Courtyard Apartments,1 Suspended,"0450 Tierwester S, Houston, TX 77003",Private Property,29.71881,-95.35838,D,TSU,,,DC,1.5 DL,Feeney 4G,N/A,11,,,,,,,,,,,,
"TIP, PC1",COH,11/7/2018,TSU University Towers,1 Suspended,"3531 Wheeler St, Houston, TX 77004",Private Property,29.72066,-95.35627,D,TSU,,,DC,1.5 DL,Feeney 4G,N/A,9,,,,,,,,,,,,
"TIP, PC1",COH,8/13/2018,UH Cougar Village,1 Suspended,"Cougar VIllage Drive, Houston TX 77004",Private Property,29.71736,-95.34367,D,UH Main,,,DC,1.5 Dl,Feeney 4G,N/A,22,,,,,,,,,,,,
"TIP, PC1",COH,11/29/2018,UH Student Garage/METRORail,1 Suspended,"4501 Wheeler Avenue, Houston TX 77004",Private Property,29.71607,-95.34088,D,UH Main,,,DC,1.5 DL,Feeney 4G,N/A,13,,,,,,,,,Y,,,
"TIP, PC1",COH,8/15/2018,UH TDECU Cullen & Cougar Place,1 Suspended,"3875 Holman St, Houston TX 77004",Private Property,29.72061,-95.34835,D,UH Main,,,DC,1.5 DL,Feeney 4G,N/A,19,,,,,,,,,,,,
"TIP, PC1",COH,8/16/2018,UH Technology Bridge,1 Suspended,"2190 Schlumberger St, Houston TX 77023",Private Property,29.7179,-95.32812,D,UH Main,,,DC,1.5 DL,Feeney 4G,N/A,30,,,,,,,,,,,,
TIP,COH,8/13/2019,UHD Daly Parking Lot,1 Suspended,"1599 Daly Pl, Houston, TX 77002",Private Property,29.77067941,-95.35897045,D,UHD,,,DC,,,,18,7,,,,,,,,,,,
TIP,COH,7/30/2019,UHD Shea St Building/Lot B,1 Suspended,"1115 Naylor St Houston, Tx 77002",Private Property,29.76987,-95.35802,,UHD,,,DC,,,,14,7,,,,,,,,,,,
TIP,COH,7/31/2019,UHD Soccer Field / White Oak Bayou Trailhead,1 Suspended,"Heights Hike and Bike Trail Houston, Tx 77002",Park,29.76818,-95.35969,,UHD,,,DC,,,,22,8,,,,,,,,,,,
TIP,COH,10/24/2018,UTHSC Housing & Rec Center,1 Suspended,"Bertner Ave & West Rd, Houston, TX 77054",Private Property,29.69151,-95.39655,D,TMC,,,DC,1.5 DL,Feeney 4G,N/A,30,,,,,,,,,,,,
TIP,COH,4/26/2017,Woodland Park,1 Suspended,"2760 Houston Ave., Houston, TX 77009",Park,29.783564,-95.372045,H,Heights,,8,DC,1.5 DL,,N/A,15,12,,,,,,,,,,,
,COH,12/19/2013,1919 Runnels,1 Suspended,"1919 Runnels, Houston, TX 77002",ROW,29.76074791,-95.34793091,H,Greater East End,6,N/A,AC,1.5 DL,Verizon 3G,Clayton Homes?,11,7,,,157,2203,,,46%,Y,,,
TIP,COH,9/25/2018,Amherst & Kelvin,1 Suspended,"2503 Amherst St, Houston, TX 77005",Private Property,29.71593,-95.41667,C,Rice Village,5,N/A,AC,,Verizon 3G,,9,6,,,,,,,,,,,
,COH,3/26/2013,Downtown Transit Center METRORail,1 Suspended,"1900 Main St., Houston, TX 77002",ROW,29.74986076,-95.37071991,I,Downtown,6,N/A,AC,1.5,Feeney 4G,N/A,11,7,,,,,,,,Y,,,
TIP,COH,9/25/2018,Dunstan & Kelvin,1 Suspended,"5200 Kelvin Dr Houston, TX 77005",Private Property,29.7191,-95.41671,C,Rice Village,,,AC,,Verizon 3G,,11,9,,,,,,,,,,,
TIP,COH,5/29/2019,Heights Central Station,1 Suspended,"1051 Heights Blvd., Houston, TX 77008",ROW,29.79058,-95.3976,C,Heights,4,N/A,AC,1.5,Feeney 4G,,7,4,,,,,,,,,,,
TIP,COH,4/27/2021,Heights HEB N. Shepherd & 23rd,1 Suspended,"2300 N. Shepherd Dr., Houston, TX 77008",ROW,"29°48'25.01""N ","95°24'35.42""W ",C,Heights,N/A,10,AC,1.5,Inseego DS,HEB Heights,19,,,,,,,,,,,,
,HBS,5/1/2018,Memorial City Club,1 Suspended,"920 Memorial City Way, Houston, TX 77024",Private Property,29.78199,-95.53517,G,Memorial Management District,N/A,5,AC,1.5 DL,Feeney 4G,,9,7,,,,,,,,,,,
,HBS,7/25/2016,Pearl City Centre,1 Suspended,"10401 Town & Country Way, Houston, TX 77024",Private Property,29.781732,-95.5562342,G,Memorial Management District,N/A,4,AC,1.5 DL,Feeney 4G,Pearl City Center,7,7,,,,,,,,,,,
TIP,COH,7/30/2019,UHD Jesse H. Jones Student Life Center,1 Suspended,"150 Girard St., Houston, TX 77002",Private Property,29.76676,-95.35963,,UHD,,,AC,,,,18,10,,,,,,,,,,,
TIP,COH,10/23/2019,Eastwood Park,2 Supended,5000 Harrisburg Blvd. Houston TX 77011,Park,29.742504,-95.32493,I,Greater East End ,N/A,8,DC,,,N/A,14,,,,,,,,,Y,,,
TIP,COH,4/25/2017,Guadalupe Park Plaza,2 Supended,"2311 Runnels St
Houston, TX 77003",Park,29.759673,-95.345536,H,Greater East End,N/A,8,DC,1.5 DL,Verizon 3G,N/A,15,12,,,,,,,,Y,,,
TIP,COH,12/1/2020,Mason Park,2 Supended,"541 S 75th St Houston, Tx 77023",Park,29.724478,-95.294097,I,Greater East End,8,N/A,DC,1.5,,N/A,30,1,,,,,,,,,,,
TIP,COH,12/1/2020,Telephone & Eddington,2 Supended,"619 Telephone Rd Houston, Tx 77023",ROW,29.735086,-95.331002,I,Great East End,N/A,7,DC,1.5,,,13,2,,,,,,,,Y,,,
TIP,COH,7/25/2017,Gateway on Cullen,2 Supended,"1815 Cullen Blvd., Houston, TX 77023",Private Property,29.7341,-95.34114,I,EaDo,N/A,5,AC,1.5 DL,Verizon 3G,Gateway on Cullen,9,7,,,,,,,,,,,
TIP,COH,4/18/2018,Ben Taub Hospital,2 Suspended,"1504 Ben Taub Loop, Houston, TX 77030",Park,29.71147,-95.39331,D,TMC,N/A,7,DC ,1.5 DL,Verizon 3G,N/A,13,10,,,,,,,,Y,,,
TIP,COH,8/15/2018,BioScience Research Collaborative,2 Suspended,"6500 S Main St, Houston, TX 77030",ROW,29.71089,-95.40156,D,TMC,,,DC ,1.5 DL,Verizon 3G,N/A,13,14,,,,,,,,Y,,,
"TIP, PC1",COH,7/23/2019,Change Happens,2 Suspended,"3353 Elgin St., Houston, Tx 77004",ROW,29.7291,-95.3535,D,Third Ward,5,N/A,DC ,1.5 DL,Feeney 4G,N/A,9,0,,,,,,,,,,,
TIP,COH,7/25/2018,Memorial Hermann Hospital Houston Zoo METRORail,2 Suspended,"Ross Sterling Ave & Fannin St, Houston, TX 77030",Private Property,29.71356,-95.39765,D,TMC,N/A,8,DC ,1.5 DL,Feeney 4G,N/A,15,9,,,,,,,,Y,,,
TIP,COH,11/28/2018,The Southmore,2 Suspended,"5280 Caroline St, Houston TX 77004",ROW,29.72687,-95.38608,,,,,DC ,1.5 DL,Feeney 4G,N/A,13,11,,,,,,,,,,,
TIP,COH,7/25/2018,TMC Commons,2 Suspended,"6550 Bernter Ave., Houston, TX 77030",Private Property,29.70972,-95.39778,D,TMC,N/A,7,DC ,1.5 DL,Feeney 4G,N/A,13,9,,,,,,,,,,,
TIP,COH,7/24/2018,TMC Garage 2,2 Suspended,"1150 Bates., Houston, TX 77030",Private Property,29.7064,-95.39938,D,TMC,7,N/A,DC ,1.5 DL,Feeney 4G,N/A,9,9,,,,,,,,,,,
TIP,COH,7/24/2018,TMC Transit Center,2 Suspended,"6910 Fannin St., Houston, TX 77030",Private Property,29.7046,-95.40286,D,TMC,13,N/A,DC ,1.5 DL,Feeney 4G,N/A,13,10,,,,,,,,Y,,,
PC1,PC1,6/30/2022,Boyce Dorian Park,2 Suspended,2020 Solo Street,Park,29.77953,-95.32026,,5th Ward,4,N/A,DC,1.5,Inseego SC,N/A,14,0,0,,,,,,,,PC1,,
TIP,COH,12/1/2020,Fifth Ward CRC Lyons & Waco,2 Suspension,"4300 Lyons Ave Houston, TX 77020",Private Property,29.776056,-95.32676,B,Inner Loop NE,,,DC,1.5,,,11,3,,,,,,,,,,,
,HBS,8/23/2021,Harrisburg & Sampson,2 Suspended,"3315 Harrisburg Blvd #400, Houston, TX 77003",Private Property,29.748526,-95.34145,,Greater East End,N/A,5,DC,1,Inseego DS,N/A,9,,,,,,,,,Y,,,
,HBS,1/8/2021,Houston BCycle Headquarters,2 Suspended,"5603 Navigation Blvd., Houston, TX 77011",Private Property,29.74793,-95.31656,H,Greater East End,N/A,3,DC,1.5,Inseego DS,N/A,5,,,,,,,,,,,,
TIP,COH,4/27/2021,Legacy Community Health Lyons Clinic,2 Suspended,"2300 N. Shepherd Dr., Houston, TX 77008",Private Property,"29°46'33.83""N ","95°19'54.77""W",,Inner Loop Northeast,6,N/A,DC,1.5,Inseego DS,N/A,11,0,,,,,,,,Y,,,
TIP,COH,4/25/2017,Main & Wichita,2 Suspended,"4912 Main St., Houston, TX 77002",ROW,29.729854,-95.386556,D,Museum District,6,N/A,DC,1.5 DL,Feeney 4G,N/A,11,9,,,,,,,,,,,
,COH,3/29/2013,Museum District METRORail MFAH Fannin & Binz,2 Suspended,"5623 Fannin St., Houston, TX 77004",ROW,29.72486305,-95.38922882,D,Museum District,N/A,7,DC,1.5,Feeney 4G,N/A,13,9,,,,,,,,Y,,,
PC1,PC1,12/23/2021,Peggy Park,2 Suspended,"4101 Almeda Rd. Houston, TX 77004",Park,29.73223,-95.3754,,Midtown,N/A,4,DC,1.5,Inseego DS,N/A,13,0,,,,,,,,Y,,,
,COH,9/25/2013,Project Row House/Holman & Live Oak,2 Suspended,"2521 Holman St., Houston, TX 77004",ROW,29.73172951,-95.36529541,D,Third Ward,N/A,5,DC,1.5,Feeney 4G,N/A,9,5,,,,,,,,,,,
TIP,COH,12/1/2020,Quitman Near Northside METRORail,2 Suspended,"638 Quitman St Houston, TX 77009",Private Property,29.780742,-95.363655,H,Near Northside,,,DC,1.5,,,17,,,,,,,,,Y,,,
PC1,PC1,3/11/2021,Root Square @ Austin & Clay,2 Suspended,"1400 Clay St. Houston, TX 77002",ROW,29.75181,-95.36385,,Downtown,6,,DC,1.5,Inseego DS,N/A,11,0,,,,,,,,,,,
TIP,COH,2/16/2022,South Yard @ Silver & Center ,2 Suspended,"1818 Washington Ave, Houston,TX ",ROW,29.768427,-95.377182,H,Washington Corridor,6,N/A,DC,1.5,Inseego SC,N/A,11,,,,,,,,,,,,
TIP,COH,8/24/2021,The Exchange @ Hardy Yards,2 Suspended,"1550 Leona St, Houston, TX 77026",ROW," 29°46'22.25""N"," 95°21'19.76""W",,Near Northside,N/A,8,DC,1.5,Inseego DS,N/A,30,0,,,,,,,,,,,
TIP,COH,8/23/2021,The Silos @ Sawyer Yards,2 Suspended,"1502 Sawyer St, Houston, TX 77007",ROW," 29°46'17.18""N"," 95°22'57.72""W",H,Washington Corridor,N/A,10,DC,1.5,Inseego DS,N/A,19,,,,,,,,,,,,
TIP,COH,12/18/2019,TMC Dryden METROrail,2 Suspended,"6595 Fannin St., Houston, TX 77030",ROW,29.70984,-95.40064,D,TMC,,,DC,,,,13,,,,,,,,,Y,,,
TIP,COH,12/19/2019,TMC Innovation,2 Suspended,"2450 Holcombe Blvd., Houston TX 77021",Private Property,29.70377,-95.3822,D,TMC,,,DC,,,,14,,,,,,,,,,,,
TIP,COH,10/23/2018,TMC Pressler & Bertner,2 Suspended,"1200 Pressler St, Houston TX 77030",Private Property,29.70447,-95.39884,D,TMC,,,DC,1.5 DL,Feeney 4G,N/A,13,,,,,,,,,,,,
TIP,COH,12/19/2019,TMC Smith Lands METRORail Parking Lot,2 Suspended,"7800 Greenbriar Dr. Houston, TX 77030",Private Property,29.69684,-95.40512,,TMC,,,DC,,,,22,,,,,,,,,Y,,,
TIP,COH,10/23/2018,UT Research Park,2 Suspended,"East Road, Houston, TX 77054",Private Property,29.69384,-95.39421,D,TMC,,,DC,1.5 DL,Feeney 4G,N/A,22,,,,,,,,,,,,
TIP,COH,10/24/2018,UTMDA 1MC Bertner & Braeswood,2 Suspended,"7007 Bertner Ave, Houston TX 77030",Private Property,29.70027,-95.39869,D,TMC,,,DC,1.5 DL,Feeney 4G,N/A,18,,,,,,,,,,,,
TIP,COH,10/25/2018,UTMDA Main Campus MDA Blvd,2 Suspended,"6499 MD Anderson Blvd, Houston TX 77030",Private Property,29.70758,-95.39566,D,TMC,,,DC,1.5 DL,Feeney 4G,N/A,18,,,,,,,,,,,,
PC1,PC1,11/30/2021,Washington & Mentor ,2 Suspended,"1002 Washington Ave, Houston, TX 77002",ROW,29.766608,-95.368168,,Washington Corridor,5,N/A,DC,,Inseego DS,N/A,9,,,,,,,,,,PC1,,
,COH,3/25/2013,Freed Library,2 Suspended,"4100 Montrose, Houston, TX 77006",ROW,29.73544502,-95.39156342,C,Montrose,N/A,5,AC,1.5,Verizon 3G,Freed Library,9,5,,,,,,,,Y,,,
,HBS,5/14/2021,Magnolia Transit Center,2 Suspended,"6948 Harrisburg Blvd., Houston, TX 77011",Private Property,29.735554,-95.3025,,Greater East End,N/A,4,AC,,Inseego DS,Metro Transit Center,7,,,,,,,,,Y,,,
TIP,COH,3/6/2019,Saint Arnold Brewing Company,2 Suspended,"2000 Lyons Ave., Houston, TX 77020",ROW,29.77155,-95.34773,B,Near Northside,6,N/A,AC,1.5 DL,Feeney 4G,Call brewery for maintenance,11,9,,,,,,,,,,,
TIP,COH,11/27/2018,TMC Garage 8,2 Suspended,"2151 W. Holcombe, Houston TX 77030",Private Property,29.70604,-95.40801,D,TMC,,,AC,1.5 DL,Feeney 4G,,15,,,,,,,,,Y,,,
TIP,COH,10/24/2017,Centennial Gardens,,"1500 Hermann Dr., Houston, TX 77004",Park,29.720196,-95.386523,D,Hermann Park,N/A,7,DC ,1.5 DL,Verizon 3G,N/A,13,0,,,,,,,,,,,
TIP,COH,10/24/2017,HCC Central,,"1300 Holman St., Houston, TX 77004",ROW,29.738365,-95.376953,D,Midtown,N/A,7,DC ,1.5 DL,Verizon 3G,N/A,13,13,,,,,,,,Y,,,
TIP,COH,7/24/2017,Health Museum,,"1515 Hermann Dr., Houston, TX 77004",ROW,29.72151,-95.38606,D,Museum District,N/A,8,DC ,1.5 DL,Verizon 3G,N/A,15,11,,,,,,,,,,,
TIP,COH,1/31/2019,Memorial Park Picnic Loop,,"S Picnic Ln, Houston, TX 77007",Park,29.764643,-95.439908,C,Memorial Park,N/A,8,DC ,1.5 DL,Feeney 4G,N/A,15,10,,,,,,,,,,,
TIP,COH,1/31/2019,Memorial Park Running Center,,"N Picnic Ln, Houston, TX 77007",Park,29.7671,-95.4474,C,Memorial Park,4,N/A,DC ,,Feeney 4G,N/A,18,9,,,,,,,,,,,
TIP,COH,6/1/2020,Austin & Gray,,"2101 Austin St., Houston TX 77002",ROW,29.74651,-95.36803,C/ D,Midtown,7,N/A,DC,1.5,,N/A,13,,,,,,,,,Y,,,
TIP,COH,6/14/2017,Baldwin Park,,"1701 Elgin St., Houston, TX 77004",Park,29.73837,-95.371,D,Midtown,N/A,7,DC,1.5 DL,Verizon 3G,N/A,13,11,,,,,,,,,,,
,HBS,11/17/2015; 05/01/2021,Brazos & McGowen,,"2600 Brazos St., Houston, TX 77006",ROW,29.747993,-95.378379,C,Midtown,N/A,7,DC,1,Inseego DS,N/A,13,7,,,,,,,,,,,
TIP,COH,6/8/2020,Dunlavy & Westheimer,,"1706 Westheimer Rd, Houston, TX 77098",ROW,29.7428,-95.4023,C,Montrose,,,DC,1.5,,,11,,,,,,,,,,,,
TIP,COH,12/17/2019,Eleanor Tinsley Park,,18-3600 Allen Pkwy. Houston TX 77019,Park,29.7614,-95.38063,C,Montrose,4,N/A,DC,,,N/A,14,3,,,,,,,,,,,
,COH,2/21/2013,Ensemble/HCC METRORail,,"3512 Main St., Houston, TX 77002",ROW,29.73929596,-95.37915802,D,Midtown,4,N/A,DC,1.5,Verizon 3G,N/A,14,9,,,,,,,,Y,,,
PC1,PC1,1/28/2021,Fonde Recreation Center,,"110 Sabine St. Houston, TX 77007",ROW," 29°45'48.10""N"," 95°22'31.68""W",C,Montrose,N/A,6,DC,1,Inseego DS,N/A,11,,,,,,,,,,,,
"TIP, PC1",COH,12/17/2019,Hermann Park Bill Coats Bridge @ Almeda,,"6340 Almeda Road, Houston TX 77030",Park,29.70973,-95.38344,,Hermann Park,N/A,9,DC,,,N/A,17,6,,,,,,,,Y,,,
,COH,3/29/2013,Hermann Park Lake Plaza,,"6100 Hermann Park Dr., Houston, TX 77030",Park,29.71639442,-95.39039612,D,Hermann Park,N/A,7,DC,1,Verizon 3G,N/A,13,9,,,,,,,,,,,
"TIP, PC1",COH,12/18/2019,Hermann Park Rice U METROrail,,"6050 Fannin St., Houston TX 77030",Park,29.72004,-95.3932,D,Hermann Park,,,DC,,,,15,,,,,,,,,Y,,,
TIP,COH,12/8/2015;12/20/2017,Jackson Hill & Memorial Dr,,"300 Jackson Hill St, Houston, TX 77007",ROW,29.76373863,-95.40198517,C,Washington Corridor,N/A,8,DC,1.5,Verizon 3G,N/A,15,8,,,,,,,,,,,
PC1,PC1,4/27/2021,La Branch & Alabama,,"1502 Alabama St. Houston, TX 77004",ROW,29.735107,-95.375796,,Midtown,N/A,8,DC,1,INSEEGO DS,N/A,15,,,,,,,,,Y,,,
,COH,3/27/2013,LaBranch & Lamar,,"1075 La Branch, Houston, TX 77002",ROW,29.75374413,-95.36116028,I,Downtown,N/A,6,DC,1.5,Feeney 4G,N/A,11,7,,,,,,,,,,,
,COH,5/2/2012,Lamar & Crawford ,,"1177 Crawford St., Houston, TX 77002",ROW,29.75248337,-95.36073303,I,Downtown,6,N/A,DC,"1.0 (D8,9 1.5)",Feeney 4G,N/A,11,6,,,,,,,,,,,
,COH,3/27/2013,Lamar & Milam,,"782 Lamar, Houston, TX 77002",ROW,29.75726891,-95.36749268,I,Downtown,4,N/A,DC,1.5,Feeney 4G,N/A,14,9,,,,,,,,,,,
TIP,COH,4/26/2017,Lost Lake,,"3450 D'Amico St., Houston, TX 77019",ROW,29.759209,-95.402012,C,Montrose,N/A,6,DC,1.5 DL,Feeney 4G,N/A,22,10,,,,,,,,,,,
"TIP, PC1",COH,10/22/2019,MacGregor Park,,5225 Calhoun Rd. Houston TX 77021,Park,29.71017,-95.34025,D,Third Ward,,N/A,DC,,,N/A,17,,,,,,,,,,,,
,COH,3/30/2013,Main & Dallas,,"1250 Main St., Houston, TX 77002",ROW,29.75526237,-95.36601257,I,Downtown,7,N/A,DC,1.5,Feeney 4G,N/A,13,8,,,,,,,,Y,,,
,COH,9/10/2013,Milam & Webster,,"2215 Milam St., Houston, TX 77002",ROW,29.74874878,-95.37413788,C,Midtown,6,N/A,DC,1.5,Feeney 4G,N/A,11,8,,,,,,,,Y,,,
TIP,COH,8/25/2021,MLK & Griggs,,"5107 Griggs Rd. Houston, TX, 77021",ROW,29.69864017,-95.33720369,D,Inner Loop SE,N/A,6,DC,1.5,Inseego DS,N/A,11,6,,,,,,,,Y,,,
TIP,COH,2/15/2022,Park @ Palm Center,,"5400 Griggs Rd., Houston, TX 77021",Park,29.69504,-95.332149,D,Inner Loop SE,6,N/A,DC,1.5,Inseego DS,N/A,11,,,,,,,,,Y,,,
,HBS,2/15/2022,Perry & Milart,,"6110 Milart St, Houston, TX 77021",ROW,29.693419,-95.341336,,Inner Loop SE,5,N/A,DC,1.5,Inseego SC,N/A,8,,,,,,,,,,,,
,HBS,3/28/2013,Sabine Bridge,,"190 Sabine Sr., Houston, TX 77007",ROW,29.76187897,-95.3756485,"H, C",Montrose/Midtown,6,,DC,1.5,Feeney 4G,N/A,21,6,,,,,,,,,,,
,COH,3/28/2013,Smith & Capitol, 1 Suspended,"612 Smith St., Houston, TX 77002",ROW,29.7615242,-95.36669922,I,Downtown,7,,DC,1.5,Feeney 4G,N/A,15,10,,,,,,,,,,,
,COH,9/10/2013,Spotts Park,,"3683 Willia St., Houston, TX 77007",Park,29.76618004,-95.3969574,H,Washington Corridor,N/A,4,DC,1.5 DL,Feeney 4G,N/A,14,9,,,,,,,,,,,
,COH,9/9/2013,Taft & Fairview,,"2401 Taft St., Houston, TX 77006",ROW,29.74820328,-95.38568115,C,Montrose,6,N/A,DC,1.5 DL,Feeney 4G,N/A,11,7,,,,,,,,,,,
TIP,COH,3/27/2013;11/28/17,Westheimer & Waugh,,"1111 Westheimer, Houston, TX 77006",Private Property,29.74484253,-95.3927536,C,Montrose,N/A,4,DC,1.5,,N/A,14,12,,,,,,,,,,,
TIP,COH,4/11/2022,Convention Center ,,"1001 Avenidas De Las Americas Houston, TX 77010",ROW,29.75435,-95.35749,,Downtown,N/A,N/A,B,3,N/A,N/A,15,,,,,,,,,Y,,,
,HBS,9/15/2022,Post Oak & 4Oaks Pl. ,,"1500 Post Oak Blvd. Houston, TX 77056",Private Property,29.75267,-95.46061,,Uptown,N/A,N/A,B,3,N/A,,15,0,8,,,,,,,Y,Y,,N
,HBS,4/28/2022,Regent Square,,"3515 W. Dallas St. Houston, TX 77019",Private Property,29.75592,-95.402471,C,Montrose,N/A,N/A,B,3,N/A,N/A,10,5,,,,,,,,,,,
,HBS,7/29/2022,The Ion,,"4201 Main St. Houston, TX 77002",Private Property,29.73466,-95.38196,,Midtown,N/A,N/A,B,3,N/A,,10,0,5,,,,,,,Y,,,
,HBS,11/22/2022,Trebly Park,,"1199 Bell St. Houston, TX 77002",Private Property,29.75246,-95.36683,,Downtown,N/A,N/A,B,3,N/A,N/A,11,5,,,,,,,,,Downtown MD,,
PC1,PC1,9/20/2022,NRG - Fannin,,"1NRG Park Houston, TX 77054",Private Property,29.68647,-95.40392,,Inner Loop SW,N/A,8,AC,,Inseego DS,,15,0,0,,,,,,,Y,Y,,N
PC1,PC1 ,9/19/2022,NRG - Kirby,,"8799 Kirby Dr. Houston, TX 77054",Private Property,29.68495,-95.41259,,Inner Loop SW,8,N/A,AC,,Inseego DS,,15,0,0,,,,,,,,Y,,N
TIP,COH,4/18/2018,2222 Smith,,"2222 Smith St., Houston, TX 77002",ROW,29.74999,-95.37566,C,Midtown,6,N/A,AC,1.5 DL,Verizon 3G,2222 Smith Building,11,7,,,,,,,,,,,
TIP,COH,1/17/2018,24ELEVEN WASHINGTON,,"2411 Washington Ave., Houston, TX 77006",ROW,29.76822,-95.38286,H,Washington Corridor,N/A,5,AC,1.5 DL,Verizon 3G,2411 Building. Jenea White,9,9,,,,,,,,Y,,,
,COH,6/10/2013,Clay & Smith,,"554 Clay St., Houston, TX 77002",ROW,29.75771904,-95.36981964,I,Downtown,N/A,7,AC,1.5 DL,Verizon 3G,N/A,13,7,,,,,,,,Y,,,
TIP,COH,1/17/2017,Crawford Island,,"925 Crawford St., Houston, TX 77010",ROW,29.754428,-95.359303,I,Downtown,N/A,10,AC,1.5 DL,Verizon 3G,Downtown District,19,11,,,,,,,,,,,
,COH,3/27/2013,Elgin & Smith,,"614 Elgin, Houston, TX 77006",ROW,29.74367905,-95.38031769,C,Midtown,N/A,6,AC,1.5,Verizon 3G,,11,7,,,,,,,,Y,,,
"TIP, PC1",COH,6/14/2017;11/28/2017; 6/9/2022,Jury Assembly,,"201 Caroline Street, Houston, TX 77002",ROW,29.76161,-95.35802,I,Downtown,N/A,11,AC,1.5 DL,Inseego SC,Harris County Civil Courthouse,21,14,,,,,,,,Y,,,
TIP,COH,5/2/2012; 11/15/2021,Lamar & Bagby,,"430 Lamar St., Houston, TX 77002",ROW,29.75936,-95.370544,I,Downtown,6,N/A,AC,"1.0 (D8,9 1.5)",Verizon 3G,Paul Marro,11,5,,,,,,,,,,,
TIP,COH,3/26/2013; 3/9/2021,Lamar & Caroline ,,"1300 Lamar St, Houston, Texas 77010",ROW," 29°45'16.51""N"," 95°21'45.86""W",I,Downtown,N/A,8,AC,1.5,Feeney 4G,,15,10,,,,,,"was McKinney & Caroline, moved due to City reconstruction of sidewalks",,,,,
,HBS,3/22/2016,Main Street Square METRORail Main & Walker,,"914 Main St., Houston, TX 77002",ROW,29.75764,-95.36436,I,Downtown,7,N/A,AC,1.5 DL,Feeney 4G,Joe Maxwell - Downtown District,13,7,,,,,,,,Y,,,
,COH,4/25/2012,Market Square,,"864 Congress St., Houston, TX 77002",Park,29.76276779,-95.36197662,I,Downtown,3,N/A,AC,1,Feeney 4G,Joe Maxwell - Downtown District,10,7,,,,,,,,21,,,
,COH,9/9/2013,Menil Collection/Alabama & Mulberry,," 1506 W Alabama St, Houston, TX 77006",ROW,29.75562668,-95.36245728,C,Montrose,7,N/A,AC,1.5 DL,Feeney 4G,N/A,13,8,,,,,,,,,,,
TIP,COH,3/6/2019,Midtown Park,,"2811 Travis St, Houston, TX 77006",Private Property,29.74391,-95.37554,C,Midtown,N/A,7,AC,,,Midtown park connection (Midtown MD),13,N/A,,,,,,,,Y,,,
TIP,COH,6/29/2017,Navigation Esplanade,,"2501 Navigation BlvD., Houston, TX 77003",ROW,29.75793,-95.34371,H,Greater East End,N/A,7,AC,1.5 DL,Feeney 4G,Patrick Ezzell - East End District,13,8,,,,,,,,Y,,,
TIP,COH,7/24/2017,Pearl Washington,,"5418 Washington Ave., Houston, TX 77007",Private Property,29.77078,-95.41696,C,Washington Corridor,7,N/A,AC,1.5 DL,Feeney 4G,Pearl on Washington,13,10,,,,,,,,,,,
,COH,2/23/2013,Tellepsen YMCA,1 Suspended,"808 Pease St., Houston, TX 77002",ROW/Private Property,29.75261307,-95.37070465,I,Downtown,3,,AC,1,Feeney 4G,YMCA,10,6,,,,,,,,,,,
,HBS,12/17/2019,The Parker @ Memorial,,"160 Birdsall, Houston, TX 77007",ROW,29.76283,-95.42001,,Washington Corridor,,,AC,,,,7,,,,,,,,,,,,
,COH,3/30/2013,UHD Main & Franklin,,"100 Main St., Houston, TX 77002",Private Property,29.75261307,-95.37070465,I,Downtown,5,N/A,AC,1.5,Feeney 4G,Joe Maxwell - Downtown District,9,7,,,,,,,,Y,,,
,COH,4/5/2013,West Gray & Baldwin,,"218 Gray St., Houston, TX 77002",ROW,29.75246048,-95.37767029,C,Midtown,6,N/A,AC,1.5,Feeney 4G,,11,7,,,,,,,,,,,
,HBS,8/8/2023,TMC Expansion 1,,"1885 OST Houston, TX 77030",Private Property,,,,TMC,N/A ,N/A ,B,3.0,N/A,N/A,7,4,,,,,,,,,,,
,HBS,8/8/2023,TMC Expansion 2,,"1885 OST Houston, TX 77030",Private Property,,,,TMC,N/A ,N/A ,B,3.0,N/A,N/A,7,4,,,,,,,,,,,
,HBS,8/8/2023,TMC Expansion 3,,"1885 OST Houston, TX 77030",Private Property,,,,TMC,N/A ,N/A ,B,3.0,N/A,N/A,7,4,,,,,,,,,,,
,PC1,6/21/2023,Polk & Velasco,,"3202 Polk St. Houston, TX 77003",ROW,,,,East End,N/A,8,AC,,Inseego SC,"Mango Pickle, Inc.",15,0,,,,,,,,,,,